$GPRMC,120000.000,A,3520.2023,S,14909.5724,E,23.5,287.6,010626,003.1,W*5C
$GPGGA,120000.000,3520.2023,S,14909.5724,E,1,08,0.9,580.0,M,46.9,M,,*43
$GPRMC,120001.000,A,3520.1994,S,14909.5651,E,23.5,296.5,010626,003.1,W*5B
$GPGGA,120001.000,3520.1994,S,14909.5651,E,1,08,0.9,580.4,M,46.9,M,,*43
$GPRMC,120002.000,A,3520.1964,S,14909.5580,E,23.5,290.4,010626,003.1,W*5F
$GPGGA,120002.000,3520.1964,S,14909.5580,E,1,08,0.9,580.9,M,46.9,M,,*4D
$GPRMC,120003.000,A,3520.1934,S,14909.5510,E,21.7,283.3,010626,003.1,W*57
$GPGGA,120003.000,3520.1934,S,14909.5510,E,1,08,0.9,581.3,M,46.9,M,,*4B
$GPRMC,120004.000,A,3520.1968,S,14909.5469,E,19.7,129.7,010626,003.1,W*5A
$GPGGA,120004.000,3520.1968,S,14909.5469,E,1,08,0.9,581.4,M,46.9,M,,*4D
$GPRMC,120005.000,A,3520.1981,S,14909.5541,E,23.5,114.7,010626,003.1,W*52
$GPGGA,120005.000,3520.1981,S,14909.5541,E,1,08,0.9,581.9,M,46.9,M,,*4D
$GPRMC,120006.000,A,3520.2024,S,14909.5580,E,19.5,231.9,010626,003.1,W*5A
$GPGGA,120006.000,3520.2024,S,14909.5580,E,1,08,0.9,581.8,M,46.9,M,,*47
$GPRMC,120007.000,A,3520.2014,S,14909.5509,E,23.3,263.5,010626,003.1,W*5D
$GPGGA,120007.000,3520.2014,S,14909.5509,E,1,08,0.9,582.0,M,46.9,M,,*4F
$GPRMC,120008.000,A,3520.2042,S,14909.5437,E,23.0,211.9,010626,003.1,W*57
$GPGGA,120008.000,3520.2042,S,14909.5437,E,1,08,0.9,581.9,M,46.9,M,,*45
$GPRMC,120009.000,A,3520.2105,S,14909.5414,E,23.5,199.1,010626,003.1,W*5B
$GPGGA,120009.000,3520.2105,S,14909.5414,E,1,08,0.9,581.6,M,46.9,M,,*48
$GPRMC,120010.000,A,3520.2155,S,14909.5419,E,19.9,78.9,010626,003.1,W*68
$GPGGA,120010.000,3520.2155,S,14909.5419,E,1,08,0.9,581.8,M,46.9,M,,*46
$GPRMC,120011.000,A,3520.2099,S,14909.5451,E,23.5,25.5,010626,003.1,W*65
$GPGGA,120011.000,3520.2099,S,14909.5451,E,1,08,0.9,580.9,M,46.9,M,,*4A
$GPRMC,120012.000,A,3520.2051,S,14909.5490,E,23.4,87.8,010626,003.1,W*6B
$GPGGA,120012.000,3520.2051,S,14909.5490,E,1,08,0.9,580.6,M,46.9,M,,*4F
$GPRMC,120013.000,A,3520.2067,S,14909.5518,E,23.5,253.5,010626,003.1,W*59
$GPGGA,120013.000,3520.2067,S,14909.5518,E,1,08,0.9,579.9,M,46.9,M,,*43
$GPRMC,120014.000,A,3520.2126,S,14909.5483,E,22.9,188.0,010626,003.1,W*54
$GPGGA,120014.000,3520.2126,S,14909.5483,E,1,08,0.9,579.6,M,46.9,M,,*4C
$GPRMC,120015.000,A,3520.2148,S,14909.5533,E,23.2,112.9,010626,003.1,W*57
$GPGGA,120015.000,3520.2148,S,14909.5533,E,1,08,0.9,579.1,M,46.9,M,,*48
$GPRMC,120016.000,A,3520.2136,S,14909.5612,E,23.5,84.7,010626,003.1,W*6A
$GPGGA,120016.000,3520.2136,S,14909.5612,E,1,08,0.9,578.7,M,46.9,M,,*45
$GPRMC,120017.000,A,3520.2125,S,14909.5690,E,23.5,94.1,010626,003.1,W*64
$GPGGA,120017.000,3520.2125,S,14909.5690,E,1,08,0.9,578.4,M,46.9,M,,*4F
$GPRMC,120018.000,A,3520.2096,S,14909.5685,E,23.1,263.7,010626,003.1,W*5E
$GPGGA,120018.000,3520.2096,S,14909.5685,E,1,08,0.9,578.2,M,46.9,M,,*4B
$GPRMC,120019.000,A,3520.2095,S,14909.5609,E,23.5,257.7,010626,003.1,W*5B
$GPGGA,120019.000,3520.2095,S,14909.5609,E,1,08,0.9,578.0,M,46.9,M,,*4F
$GPRMC,120020.000,A,3520.2107,S,14909.5535,E,19.7,288.9,010626,003.1,W*50
$GPGGA,120020.000,3520.2107,S,14909.5535,E,1,08,0.9,578.4,M,46.9,M,,*47
$GPRMC,120021.000,A,3520.2077,S,14909.5562,E,23.5,67.1,010626,003.1,W*65
$GPGGA,120021.000,3520.2077,S,14909.5562,E,1,08,0.9,578.1,M,46.9,M,,*47
$GPRMC,120022.000,A,3520.2041,S,14909.5622,E,23.0,40.1,010626,003.1,W*64
$GPGGA,120022.000,3520.2041,S,14909.5622,E,1,08,0.9,578.2,M,46.9,M,,*45
$GPRMC,120023.000,A,3520.2058,S,14909.5661,E,22.0,58.7,010626,003.1,W*64
$GPGGA,120023.000,3520.2058,S,14909.5661,E,1,08,0.9,578.3,M,46.9,M,,*4A
$GPRMC,120024.000,A,3520.2068,S,14909.5713,E,23.5,46.3,010626,003.1,W*6B
$GPGGA,120024.000,3520.2068,S,14909.5713,E,1,08,0.9,579.1,M,46.9,M,,*49
$GPRMC,120025.000,A,3520.2008,S,14909.5689,E,23.2,289.5,010626,003.1,W*5E
$GPGGA,120025.000,3520.2008,S,14909.5689,E,1,08,0.9,579.4,M,46.9,M,,*49
$GPRMC,120026.000,A,3520.1980,S,14909.5617,E,23.2,313.3,010626,003.1,W*54
$GPGGA,120026.000,3520.1980,S,14909.5617,E,1,08,0.9,579.9,M,46.9,M,,*4A
$GPRMC,120027.000,A,3520.1951,S,14909.5545,E,23.2,288.0,010626,003.1,W*5D
$GPGGA,120027.000,3520.1951,S,14909.5545,E,1,08,0.9,580.4,M,46.9,M,,*48
$GPRMC,120028.000,A,3520.1941,S,14909.5476,E,22.2,231.3,010626,003.1,W*52
$GPGGA,120028.000,3520.1941,S,14909.5476,E,1,08,0.9,580.3,M,46.9,M,,*40
$GPRMC,120029.000,A,3520.1974,S,14909.5499,E,23.2,92.7,010626,003.1,W*6A
$GPGGA,120029.000,3520.1974,S,14909.5499,E,1,08,0.9,581.2,M,46.9,M,,*46
$GPRMC,120030.000,A,3520.1995,S,14909.5573,E,22.6,129.3,010626,003.1,W*58
$GPGGA,120030.000,3520.1995,S,14909.5573,E,1,08,0.9,581.3,M,46.9,M,,*45
$GPRMC,120031.000,A,3520.2021,S,14909.5549,E,23.2,287.9,010626,003.1,W*5D
$GPGGA,120031.000,3520.2021,S,14909.5549,E,1,08,0.9,581.9,M,46.9,M,,*42
$GPRMC,120032.000,A,3520.2021,S,14909.5472,E,23.1,257.2,010626,003.1,W*52
$GPGGA,120032.000,3520.2021,S,14909.5472,E,1,08,0.9,581.9,M,46.9,M,,*48
$GPRMC,120033.000,A,3520.2068,S,14909.5426,E,23.2,192.4,010626,003.1,W*50
$GPGGA,120033.000,3520.2068,S,14909.5426,E,1,08,0.9,582.0,M,46.9,M,,*4F
$GPRMC,120034.000,A,3520.2130,S,14909.5408,E,23.2,190.0,010626,003.1,W*51
$GPGGA,120034.000,3520.2130,S,14909.5408,E,1,08,0.9,581.9,M,46.9,M,,*42
$GPRMC,120035.000,A,3520.2133,S,14909.5437,E,23.2,20.4,010626,003.1,W*61
$GPGGA,120035.000,3520.2133,S,14909.5437,E,1,08,0.9,581.7,M,46.9,M,,*42
$GPRMC,120036.000,A,3520.2074,S,14909.5462,E,23.2,20.9,010626,003.1,W*6D
$GPGGA,120036.000,3520.2074,S,14909.5462,E,1,08,0.9,581.5,M,46.9,M,,*41
$GPRMC,120037.000,A,3520.2048,S,14909.5524,E,20.1,120.1,010626,003.1,W*59
$GPGGA,120037.000,3520.2048,S,14909.5524,E,1,08,0.9,582.0,M,46.9,M,,*4A
$GPRMC,120038.000,A,3520.2088,S,14909.5494,E,22.7,198.2,010626,003.1,W*54
$GPGGA,120038.000,3520.2088,S,14909.5494,E,1,08,0.9,581.0,M,46.9,M,,*40
$GPRMC,120039.000,A,3520.2149,S,14909.5489,E,21.9,104.3,010626,003.1,W*5C
$GPGGA,120039.000,3520.2149,S,14909.5489,E,1,08,0.9,581.2,M,46.9,M,,*43
$GPRMC,120040.000,A,3520.2145,S,14909.5564,E,23.2,79.3,010626,003.1,W*6E
$GPGGA,120040.000,3520.2145,S,14909.5564,E,1,08,0.9,579.7,M,46.9,M,,*41
$GPRMC,120041.000,A,3520.2131,S,14909.5644,E,23.2,75.9,010626,003.1,W*6B
$GPGGA,120041.000,3520.2131,S,14909.5644,E,1,08,0.9,579.3,M,46.9,M,,*46
$GPRMC,120042.000,A,3520.2113,S,14909.5716,E,21.7,15.9,010626,003.1,W*6F
$GPGGA,120042.000,3520.2113,S,14909.5716,E,1,08,0.9,580.1,M,46.9,M,,*47
$GPRMC,120043.000,A,3520.2090,S,14909.5659,E,23.2,287.6,010626,003.1,W*5F
$GPGGA,120043.000,3520.2090,S,14909.5659,E,1,08,0.9,578.5,M,46.9,M,,*45
$GPRMC,120044.000,A,3520.2103,S,14909.5577,E,23.2,263.9,010626,003.1,W*59
$GPGGA,120044.000,3520.2103,S,14909.5577,E,1,08,0.9,578.2,M,46.9,M,,*41
$GPRMC,120045.000,A,3520.2098,S,14909.5518,E,14.2,38.9,010626,003.1,W*6A
$GPGGA,120045.000,3520.2098,S,14909.5518,E,1,08,0.9,580.6,M,46.9,M,,*49
$GPRMC,120046.000,A,3520.2068,S,14909.5584,E,23.2,62.6,010626,003.1,W*67
$GPGGA,120046.000,3520.2068,S,14909.5584,E,1,08,0.9,578.0,M,46.9,M,,*41
$GPRMC,120047.000,A,3520.2031,S,14909.5643,E,22.9,113.9,010626,003.1,W*50
$GPGGA,120047.000,3520.2031,S,14909.5643,E,1,08,0.9,578.0,M,46.9,M,,*44
$GPRMC,120048.000,A,3520.2052,S,14909.5678,E,23.0,80.8,010626,003.1,W*60
$GPGGA,120048.000,3520.2052,S,14909.5678,E,1,08,0.9,578.1,M,46.9,M,,*47
$GPRMC,120049.000,A,3520.2054,S,14909.5725,E,23.2,8.0,010626,003.1,W*54
$GPGGA,120049.000,3520.2054,S,14909.5725,E,1,08,0.9,578.5,M,46.9,M,,*4D
$GPRMC,120050.000,A,3520.2001,S,14909.5666,E,23.2,295.5,010626,003.1,W*59
$GPGGA,120050.000,3520.2001,S,14909.5666,E,1,08,0.9,578.8,M,46.9,M,,*4E
$GPRMC,120051.000,A,3520.1972,S,14909.5595,E,23.2,294.8,010626,003.1,W*55
$GPGGA,120051.000,3520.1972,S,14909.5595,E,1,08,0.9,579.2,M,46.9,M,,*45
$GPRMC,120052.000,A,3520.1940,S,14909.5527,E,23.2,279.2,010626,003.1,W*57
$GPGGA,120052.000,3520.1940,S,14909.5527,E,1,08,0.9,579.6,M,46.9,M,,*4A
$GPRMC,120053.000,A,3520.1955,S,14909.5467,E,23.2,172.1,010626,003.1,W*5C
$GPGGA,120053.000,3520.1955,S,14909.5467,E,1,08,0.9,580.1,M,46.9,M,,*4B
$GPRMC,120054.000,A,3520.1975,S,14909.5524,E,23.2,103.9,010626,003.1,W*51
$GPGGA,120054.000,3520.1975,S,14909.5524,E,1,08,0.9,580.6,M,46.9,M,,*4F
$GPRMC,120055.000,A,3520.2009,S,14909.5585,E,20.2,182.2,010626,003.1,W*5B
$GPGGA,120055.000,3520.2009,S,14909.5585,E,1,08,0.9,578.2,M,46.9,M,,*47
$GPRMC,120056.000,A,3520.2020,S,14909.5525,E,23.2,281.2,010626,003.1,W*5A
$GPGGA,120056.000,3520.2020,S,14909.5525,E,1,08,0.9,581.4,M,46.9,M,,*45
$GPRMC,120057.000,A,3520.2028,S,14909.5454,E,22.1,230.1,010626,003.1,W*5F
$GPGGA,120057.000,3520.2028,S,14909.5454,E,1,08,0.9,580.7,M,46.9,M,,*49
$GPRMC,120058.000,A,3520.2082,S,14909.5424,E,23.2,177.3,010626,003.1,W*57
$GPGGA,120058.000,3520.2082,S,14909.5424,E,1,08,0.9,581.9,M,46.9,M,,*4E
$GPRMC,120059.000,A,3520.2147,S,14909.5404,E,21.3,181.5,010626,003.1,W*50
$GPGGA,120059.000,3520.2147,S,14909.5404,E,1,08,0.9,580.7,M,46.9,M,,*4A
$GPRMC,120100.000,A,3520.2119,S,14909.5443,E,23.2,19.0,010626,003.1,W*63
$GPGGA,120100.000,3520.2119,S,14909.5443,E,1,08,0.9,582.0,M,46.9,M,,*4A
$GPRMC,120101.000,A,3520.2061,S,14909.5469,E,21.6,36.0,010626,003.1,W*6F
$GPGGA,120101.000,3520.2061,S,14909.5469,E,1,08,0.9,581.8,M,46.9,M,,*46
$GPRMC,120102.000,A,3520.2056,S,14909.5533,E,15.1,194.5,010626,003.1,W*5A
$GPGGA,120102.000,3520.2056,S,14909.5533,E,1,08,0.9,579.5,M,46.9,M,,*45
$GPRMC,120103.000,A,3520.2101,S,14909.5491,E,23.2,189.5,010626,003.1,W*5B
$GPGGA,120103.000,3520.2101,S,14909.5491,E,1,08,0.9,581.3,M,46.9,M,,*4F
$GPRMC,120104.000,A,3520.2148,S,14909.5508,E,22.7,78.8,010626,003.1,W*66
$GPGGA,120104.000,3520.2148,S,14909.5508,E,1,08,0.9,581.4,M,46.9,M,,*43
$GPRMC,120105.000,A,3520.2142,S,14909.5580,E,23.2,82.4,010626,003.1,W*60
$GPGGA,120105.000,3520.2142,S,14909.5580,E,1,08,0.9,580.3,M,46.9,M,,*4E
$GPRMC,120106.000,A,3520.2126,S,14909.5663,E,23.2,91.4,010626,003.1,W*6D
$GPGGA,120106.000,3520.2126,S,14909.5663,E,1,08,0.9,580.0,M,46.9,M,,*42
$GPRMC,120107.000,A,3520.2103,S,14909.5713,E,20.2,356.7,010626,003.1,W*55
$GPGGA,120107.000,3520.2103,S,14909.5713,E,1,08,0.9,582.0,M,46.9,M,,*40
$GPRMC,120108.000,A,3520.2090,S,14909.5641,E,23.2,270.2,010626,003.1,W*54
$GPGGA,120108.000,3520.2090,S,14909.5641,E,1,08,0.9,578.9,M,46.9,M,,*4E
$GPRMC,120109.000,A,3520.2101,S,14909.5567,E,23.2,252.5,010626,003.1,W*5C
$GPGGA,120109.000,3520.2101,S,14909.5567,E,1,08,0.9,578.6,M,46.9,M,,*4E
$GPRMC,120110.000,A,3520.2089,S,14909.5529,E,21.6,57.0,010626,003.1,W*6B
$GPGGA,120110.000,3520.2089,S,14909.5529,E,1,08,0.9,580.3,M,46.9,M,,*4F
$GPRMC,120111.000,A,3520.2064,S,14909.5596,E,22.7,53.6,010626,003.1,W*6D
$GPGGA,120111.000,3520.2064,S,14909.5596,E,1,08,0.9,578.5,M,46.9,M,,*48
$GPRMC,120112.000,A,3520.2041,S,14909.5644,E,21.5,184.1,010626,003.1,W*58
$GPGGA,120112.000,3520.2041,S,14909.5644,E,1,08,0.9,579.6,M,46.9,M,,*42
$GPRMC,120113.000,A,3520.2053,S,14909.5689,E,21.9,111.7,010626,003.1,W*5D
$GPGGA,120113.000,3520.2053,S,14909.5689,E,1,08,0.9,578.6,M,46.9,M,,*40
$GPRMC,120114.000,A,3520.2025,S,14909.5721,E,23.5,351.0,010626,003.1,W*57
$GPGGA,120114.000,3520.2025,S,14909.5721,E,1,08,0.9,578.4,M,46.9,M,,*47
$GPRMC,120115.000,A,3520.1992,S,14909.5654,E,23.5,291.5,010626,003.1,W*5B
$GPGGA,120115.000,3520.1992,S,14909.5654,E,1,08,0.9,578.8,M,46.9,M,,*4F
$GPRMC,120116.000,A,3520.1967,S,14909.5577,E,23.5,297.4,010626,003.1,W*57
$GPGGA,120116.000,3520.1967,S,14909.5577,E,1,08,0.9,579.1,M,46.9,M,,*4C
$GPRMC,120117.000,A,3520.1935,S,14909.5509,E,21.7,275.2,010626,003.1,W*52
$GPGGA,120117.000,3520.1935,S,14909.5509,E,1,08,0.9,578.0,M,46.9,M,,*43
$GPRMC,120118.000,A,3520.1970,S,14909.5468,E,19.8,105.5,010626,003.1,W*5D
$GPGGA,120118.000,3520.1970,S,14909.5468,E,1,08,0.9,579.6,M,46.9,M,,*4C
$GPRMC,120119.000,A,3520.1982,S,14909.5541,E,23.5,94.6,010626,003.1,W*65
$GPGGA,120119.000,3520.1982,S,14909.5541,E,1,08,0.9,580.4,M,46.9,M,,*4E
$GPRMC,120120.000,A,3520.2024,S,14909.5580,E,20.1,251.2,010626,003.1,W*5C
$GPGGA,120120.000,3520.2024,S,14909.5580,E,1,08,0.9,578.5,M,46.9,M,,*49
$GPRMC,120121.000,A,3520.2018,S,14909.5502,E,23.4,259.8,010626,003.1,W*5C
$GPGGA,120121.000,3520.2018,S,14909.5502,E,1,08,0.9,581.3,M,46.9,M,,*4D
$GPRMC,120122.000,A,3520.2042,S,14909.5438,E,23.1,206.4,010626,003.1,W*5B
$GPGGA,120122.000,3520.2042,S,14909.5438,E,1,08,0.9,581.1,M,46.9,M,,*4B
$GPRMC,120123.000,A,3520.2107,S,14909.5414,E,23.5,197.1,010626,003.1,W*5E
$GPGGA,120123.000,3520.2107,S,14909.5414,E,1,08,0.9,581.9,M,46.9,M,,*4C
$GPRMC,120124.000,A,3520.2152,S,14909.5424,E,21.6,56.1,010626,003.1,W*67
$GPGGA,120124.000,3520.2152,S,14909.5424,E,1,08,0.9,579.6,M,46.9,M,,*40
$GPRMC,120125.000,A,3520.2091,S,14909.5458,E,23.5,9.5,010626,003.1,W*5C
$GPGGA,120125.000,3520.2091,S,14909.5458,E,1,08,0.9,581.9,M,46.9,M,,*4C
$GPRMC,120126.000,A,3520.2046,S,14909.5500,E,23.4,69.3,010626,003.1,W*68
$GPGGA,120126.000,3520.2046,S,14909.5500,E,1,08,0.9,581.9,M,46.9,M,,*49
$GPRMC,120127.000,A,3520.2071,S,14909.5509,E,23.5,233.9,010626,003.1,W*52
$GPGGA,120127.000,3520.2071,S,14909.5509,E,1,08,0.9,581.6,M,46.9,M,,*4A
$GPRMC,120128.000,A,3520.2129,S,14909.5487,E,23.5,185.3,010626,003.1,W*52
$GPGGA,120128.000,3520.2129,S,14909.5487,E,1,08,0.9,581.4,M,46.9,M,,*4C
$GPRMC,120129.000,A,3520.2145,S,14909.5545,E,23.5,85.3,010626,003.1,W*67
$GPGGA,120129.000,3520.2145,S,14909.5545,E,1,08,0.9,581.1,M,46.9,M,,*4D
$GPRMC,120130.000,A,3520.2134,S,14909.5623,E,23.5,73.8,010626,003.1,W*68
$GPGGA,120130.000,3520.2134,S,14909.5623,E,1,08,0.9,580.5,M,46.9,M,,*45
$GPRMC,120131.000,A,3520.2123,S,14909.5701,E,23.5,94.2,010626,003.1,W*6D
$GPGGA,120131.000,3520.2123,S,14909.5701,E,1,08,0.9,580.0,M,46.9,M,,*46
$GPRMC,120132.000,A,3520.2094,S,14909.5675,E,23.5,282.5,010626,003.1,W*53
$GPGGA,120132.000,3520.2094,S,14909.5675,E,1,08,0.9,579.5,M,46.9,M,,*49
$GPRMC,120133.000,A,3520.2101,S,14909.5593,E,23.5,251.8,010626,003.1,W*57
$GPGGA,120133.000,3520.2101,S,14909.5593,E,1,08,0.9,579.1,M,46.9,M,,*4A
$GPRMC,120134.000,A,3520.2105,S,14909.5522,E,22.4,328.9,010626,003.1,W*50
$GPGGA,120134.000,3520.2105,S,14909.5522,E,1,08,0.9,580.5,M,46.9,M,,*41
$GPRMC,120135.000,A,3520.2073,S,14909.5574,E,23.5,60.2,010626,003.1,W*66
$GPGGA,120135.000,3520.2073,S,14909.5574,E,1,08,0.9,578.5,M,46.9,M,,*44
$GPRMC,120136.000,A,3520.2031,S,14909.5637,E,21.7,60.6,010626,003.1,W*63
$GPGGA,120136.000,3520.2031,S,14909.5637,E,1,08,0.9,581.2,M,46.9,M,,*44
$GPRMC,120137.000,A,3520.2053,S,14909.5670,E,23.4,58.6,010626,003.1,W*6F
$GPGGA,120137.000,3520.2053,S,14909.5670,E,1,08,0.9,578.0,M,46.9,M,,*46
$GPRMC,120138.000,A,3520.2059,S,14909.5723,E,20.5,9.8,010626,003.1,W*55
$GPGGA,120138.000,3520.2059,S,14909.5723,E,1,08,0.9,581.9,M,46.9,M,,*4B
$GPRMC,120139.000,A,3520.2002,S,14909.5674,E,23.6,288.9,010626,003.1,W*53
$GPGGA,120139.000,3520.2002,S,14909.5674,E,1,08,0.9,578.2,M,46.9,M,,*4A
$GPRMC,120140.000,A,3520.1973,S,14909.5601,E,23.6,301.8,010626,003.1,W*52
$GPGGA,120140.000,3520.1973,S,14909.5601,E,1,08,0.9,578.4,M,46.9,M,,*4C
$GPRMC,120141.000,A,3520.1942,S,14909.5531,E,23.6,299.9,010626,003.1,W*50
$GPGGA,120141.000,3520.1942,S,14909.5531,E,1,08,0.9,578.9,M,46.9,M,,*42
$GPRMC,120142.000,A,3520.1953,S,14909.5467,E,23.5,195.1,010626,003.1,W*55
$GPGGA,120142.000,3520.1953,S,14909.5467,E,1,08,0.9,579.1,M,46.9,M,,*4A
$GPRMC,120143.000,A,3520.1975,S,14909.5521,E,23.5,110.5,010626,003.1,W*5A
$GPGGA,120143.000,3520.1975,S,14909.5521,E,1,08,0.9,579.7,M,46.9,M,,*4A
$GPRMC,120144.000,A,3520.2009,S,14909.5584,E,20.6,171.5,010626,003.1,W*54
$GPGGA,120144.000,3520.2009,S,14909.5584,E,1,08,0.9,580.0,M,46.9,M,,*42
$GPRMC,120145.000,A,3520.2017,S,14909.5528,E,23.6,274.2,010626,003.1,W*5E
$GPGGA,120145.000,3520.2017,S,14909.5528,E,1,08,0.9,580.7,M,46.9,M,,*4D
$GPRMC,120146.000,A,3520.2030,S,14909.5451,E,23.6,231.1,010626,003.1,W*55
$GPGGA,120146.000,3520.2030,S,14909.5451,E,1,08,0.9,581.0,M,46.9,M,,*42
$GPRMC,120147.000,A,3520.2087,S,14909.5422,E,23.6,201.0,010626,003.1,W*5E
$GPGGA,120147.000,3520.2087,S,14909.5422,E,1,08,0.9,581.3,M,46.9,M,,*48
$GPRMC,120148.000,A,3520.2149,S,14909.5406,E,20.8,147.7,010626,003.1,W*5F
$GPGGA,120148.000,3520.2149,S,14909.5406,E,1,08,0.9,578.2,M,46.9,M,,*45
$GPRMC,120149.000,A,3520.2114,S,14909.5445,E,23.6,10.6,010626,003.1,W*6E
$GPGGA,120149.000,3520.2114,S,14909.5445,E,1,08,0.9,581.9,M,46.9,M,,*46
$GPRMC,120150.000,A,3520.2054,S,14909.5478,E,22.2,51.3,010626,003.1,W*68
$GPGGA,120150.000,3520.2054,S,14909.5478,E,1,08,0.9,580.0,M,46.9,M,,*4D
$GPRMC,120151.000,A,3520.2063,S,14909.5528,E,22.2,220.3,010626,003.1,W*5D
$GPGGA,120151.000,3520.2063,S,14909.5528,E,1,08,0.9,580.4,M,46.9,M,,*48
$GPRMC,120152.000,A,3520.2109,S,14909.5491,E,23.6,184.6,010626,003.1,W*5D
$GPGGA,120152.000,3520.2109,S,14909.5491,E,1,08,0.9,581.8,M,46.9,M,,*48
$GPRMC,120153.000,A,3520.2150,S,14909.5519,E,23.6,86.0,010626,003.1,W*64
$GPGGA,120153.000,3520.2150,S,14909.5519,E,1,08,0.9,581.5,M,46.9,M,,*49
$GPRMC,120154.000,A,3520.2138,S,14909.5599,E,23.6,96.6,010626,003.1,W*62
$GPGGA,120154.000,3520.2138,S,14909.5599,E,1,08,0.9,581.2,M,46.9,M,,*4F
$GPRMC,120155.000,A,3520.2127,S,14909.5676,E,23.6,87.6,010626,003.1,W*6F
$GPGGA,120155.000,3520.2127,S,14909.5676,E,1,08,0.9,580.8,M,46.9,M,,*49
$GPRMC,120156.000,A,3520.2095,S,14909.5701,E,23.6,285.4,010626,003.1,W*57
$GPGGA,120156.000,3520.2095,S,14909.5701,E,1,08,0.9,580.3,M,46.9,M,,*48
$GPRMC,120157.000,A,3520.2093,S,14909.5620,E,23.6,252.9,010626,003.1,W*55
$GPGGA,120157.000,3520.2093,S,14909.5620,E,1,08,0.9,579.8,M,46.9,M,,*40
$GPRMC,120158.000,A,3520.2104,S,14909.5546,E,23.6,259.8,010626,003.1,W*5C
$GPGGA,120158.000,3520.2104,S,14909.5546,E,1,08,0.9,579.3,M,46.9,M,,*48
$GPRMC,120159.000,A,3520.2079,S,14909.5555,E,23.6,68.8,010626,003.1,W*64
$GPGGA,120159.000,3520.2079,S,14909.5555,E,1,08,0.9,579.0,M,46.9,M,,*43
$GPRMC,120200.000,A,3520.2045,S,14909.5619,E,23.6,40.3,010626,003.1,W*6E
$GPGGA,120200.000,3520.2045,S,14909.5619,E,1,08,0.9,578.6,M,46.9,M,,*4F
$GPRMC,120201.000,A,3520.2059,S,14909.5656,E,17.6,141.9,010626,003.1,W*54
$GPGGA,120201.000,3520.2059,S,14909.5656,E,1,08,0.9,580.2,M,46.9,M,,*4B
$GPRMC,120202.000,A,3520.2073,S,14909.5708,E,17.2,86.6,010626,003.1,W*64
$GPGGA,120202.000,3520.2073,S,14909.5708,E,1,08,0.9,580.7,M,46.9,M,,*4F
